,City,Cloudiness,Country,Humidity,Date,Latitude,Longitude,Max Temp,Wind Speed
0,Iqaluit,90,CA,76,1551732168,63.75,-68.52,-4.01,2.24
0,Puerto Colombia,40,CO,74,1551729600,10.99,-74.96,80.6,16.11
0,Cabo San Lucas,5,MX,47,1551732359,22.89,-109.91,86.0,2.24
0,Lubumbashi,44,CD,66,1551732705,-11.66,27.48,70.78,8.63
0,Kapaa,75,US,56,1551731300,22.08,-159.32,71.6,17.22
0,Georgetown,75,GY,83,1551729600,6.8,-58.16,80.6,11.41
0,Albany,40,US,50,1551732253,42.65,-73.75,34.0,20.8
0,Vila Velha,40,BR,74,1551732494,-3.71,-38.6,82.4,8.05
0,Rikitea,32,PF,98,1551732323,-23.12,-134.97,80.77,15.46
0,Aras,0,YE,87,1551732707,14.28,44.38,46.75,1.03
0,Huilong,92,CN,96,1551732708,28.89,110.18,46.43,3.94
0,Smithers,5,CA,51,1551729600,54.78,-127.17,10.4,4.7
0,Bredasdorp,24,ZA,64,1551731510,-34.53,20.04,68.0,2.24
0,Drumheller,0,CA,41,1551732544,51.47,-112.7,14.0,7.18
0,Busselton,0,AU,49,1551732287,-33.64,115.35,64.99,27.76
0,Upernavik,88,GL,100,1551732451,72.79,-56.15,8.05,4.61
0,Thompson,75,CA,59,1551729600,55.74,-97.86,3.2,14.99
0,Taybad,12,IR,83,1551732414,34.74,60.78,38.56,3.71
0,Mataura,44,NZ,80,1551732006,-46.19,168.86,64.99,15.12
0,Bluff,0,AU,69,1551732327,-23.58,149.07,70.51,12.21
0,Cape Town,0,ZA,77,1551732612,-33.93,18.42,64.99,18.34
0,Vengerovo,12,RU,87,1551732711,55.68,76.74,17.14,11.32
0,Ushuaia,75,AR,71,1551729600,-54.81,-68.31,55.4,13.87
0,Hobart,0,AU,87,1551732135,-42.88,147.33,55.0,9.17
0,Barrow,0,AR,52,1551732337,-38.31,-60.23,78.34,7.4
0,New Norfolk,0,AU,87,1551732675,-42.78,147.06,55.0,9.17
0,Mineral Wells,90,US,50,1551732425,32.81,-98.11,33.01,10.29
0,Kaeo,24,NZ,100,1551732471,-35.1,173.78,66.99,1.01
0,Saldanha,88,PT,73,1551731570,41.42,-6.55,44.45,3.15
0,Nikolskoye,90,RU,79,1551732308,59.7,30.79,27.0,4.47
0,Tasiilaq,8,GL,100,1551732362,65.61,-37.64,6.38,7.18
0,Nan,8,TH,71,1551732714,18.78,100.78,66.01,2.59
0,Kampot,20,KH,94,1551729600,10.62,104.18,71.6,2.24
0,Careiro da Varzea,75,BR,66,1551729600,-3.2,-59.81,86.0,5.82
0,Balabac,0,PH,100,1551732715,7.99,117.06,80.41,10.76
0,San Cristobal,75,EC,72,1551732361,-0.39,-78.55,66.2,14.99
0,San Vicente,20,SV,55,1551732646,13.64,-88.78,89.6,11.41
0,Kodiak,1,US,20,1551732213,39.95,-94.76,15.01,14.99
0,Mar del Plata,24,AR,37,1551732717,-46.43,-67.52,64.88,25.86
0,Avarua,100,CK,61,1551729600,-21.21,-159.78,80.6,10.29
0,Praia da Vitoria,75,PT,88,1551732345,38.73,-27.07,62.6,33.58
0,Te Anau,48,NZ,86,1551732733,-45.41,167.72,62.27,11.77
0,Alta Floresta,32,BR,77,1551732733,-9.87,-56.08,82.12,2.04
0,Jamestown,64,AU,89,1551732044,-33.21,138.6,64.25,3.04
0,Hermanus,88,ZA,85,1551731510,-34.42,19.24,64.0,3.6
0,Faya,0,SA,41,1551729600,18.39,42.45,59.0,3.36
0,Maceio,90,BR,83,1551729600,-9.67,-35.74,78.8,4.7
0,Hamilton,75,BM,83,1551731118,32.3,-64.78,73.4,17.22
0,Tuatapere,12,NZ,80,1551732006,-46.13,167.69,64.99,17.25
0,Zomin,48,UZ,100,1551732739,39.96,68.4,40.58,3.71
0,Ginda,8,IN,93,1551732739,30.69,78.49,27.76,1.81
0,Nyurba,24,RU,77,1551732383,63.29,118.35,6.92,6.4
0,Zhigansk,64,RU,77,1551732381,66.77,123.37,-3.93,3.38
0,Taksimo,0,RU,60,1551732742,56.36,114.84,-4.92,1.7
0,Bethel,90,US,93,1551729360,60.79,-161.76,37.4,11.41
0,Carnarvon,0,ZA,47,1551732432,-30.97,22.13,67.58,11.32
0,Salinopolis,92,BR,100,1551732743,-0.61,-47.36,78.97,12.21
0,Sarangani,0,PH,98,1551732743,5.4,125.46,80.45,12.21
0,Marsh Harbour,0,BS,90,1551732743,26.54,-77.06,80.14,11.1
0,Poum,0,MK,56,1551729600,41.28,20.71,44.6,6.93
0,Torbay,90,CA,85,1551732089,47.66,-52.73,24.8,10.29
0,Dulce Nombre de Culmi,75,HN,48,1551729600,15.08,-85.56,86.0,4.7
0,Sept-Iles,90,CA,86,1551732499,50.2,-66.38,27.0,10.29
0,Aquiraz,40,BR,74,1551732494,-3.9,-38.39,82.4,8.05
0,Beipiao,32,CN,54,1551732746,41.8,120.76,30.37,6.4
0,Wamba,44,CD,78,1551732747,2.14,27.99,71.68,2.15
0,Pangkalanbuun,64,ID,96,1551732747,-2.68,111.62,73.57,4.16
0,Mount Gambier,90,AU,87,1551731400,-37.83,140.78,59.0,5.82
0,Fairbanks,1,US,84,1551732223,64.84,-147.72,26.01,6.73
0,Yar-Sale,80,RU,83,1551732385,66.83,70.83,4.85,14.67
0,Punta Arenas,40,CL,43,1551732193,-53.16,-70.91,51.8,28.86
0,Saint George,0,GR,87,1551729000,39.45,22.34,42.8,4.7
0,Bandarbeyla,64,SO,100,1551731479,9.49,50.81,78.97,13.0
0,Hualmay,12,PE,62,1551732749,-11.1,-77.61,78.83,4.83
0,Hambantota,48,LK,100,1551732518,6.12,81.12,76.63,3.6
0,Bagacay,88,PH,97,1551732750,12.98,124.14,78.92,15.68
0,Hasaki,0,JP,86,1551731677,35.73,140.83,41.0,5.82
0,Lorengau,12,PG,100,1551732445,-2.02,147.27,78.83,5.61
0,Moerai,88,PF,100,1551732757,-22.43,-151.33,78.61,7.63
0,Chokurdakh,48,RU,60,1551732291,70.62,147.9,-20.76,3.15
0,Qaanaaq,0,GL,92,1551732322,77.48,-69.36,-8.2,7.4
0,Ambilobe,0,MG,94,1551732758,-13.19,49.05,73.57,4.16
0,Ixtapa,5,MX,78,1551732621,20.71,-105.21,79.0,9.17
0,Dikson,76,RU,94,1551730819,73.51,80.55,0.22,26.64
0,Bathsheba,40,BB,65,1551729600,13.22,-59.52,82.4,20.8
0,Bemidji,90,US,71,1551732528,47.48,-94.89,8.01,14.99
0,Northam,40,GB,93,1551732727,51.04,-4.21,42.8,9.17
0,Ouadda,24,CF,66,1551732790,8.07,22.4,72.62,3.38
0,Hilo,90,US,64,1551732348,19.71,-155.08,69.8,11.41
0,Berlin,0,DE,70,1551732555,52.52,13.39,48.0,21.92
0,Kaitangata,0,NZ,62,1551732389,-46.28,169.85,69.01,7.0
0,Awjilah,0,LY,65,1551732791,29.14,21.3,54.17,8.3
0,Chara,0,GR,87,1551729000,39.42,22.43,42.8,4.7
0,Port Alfred,24,ZA,91,1551732550,-33.59,26.89,69.01,4.0
0,Guerrero Negro,24,MX,61,1551732624,27.97,-114.04,68.57,9.31
0,Vaini,0,IN,86,1551732325,15.34,74.49,59.8,2.48
0,Nanortalik,0,GL,100,1551732324,60.14,-45.24,26.41,7.63
0,Lebu,20,ET,67,1551729600,8.96,38.73,62.6,4.7
0,Hithadhoo,92,MV,100,1551732366,-0.6,73.08,83.65,6.06
0,Chuy,88,UY,61,1551732377,-33.69,-53.46,84.91,10.98
0,Kumi,64,UG,84,1551732794,1.49,33.93,65.47,2.59
0,San Quintin,0,PH,80,1551732794,17.54,120.52,59.71,2.71
0,Atuona,20,PF,100,1551730820,-9.8,-139.03,81.62,15.01
0,Saskylakh,20,RU,38,1551732436,71.97,114.09,-25.62,4.94
0,Onega,64,RU,84,1551732795,63.91,38.09,15.16,6.62
0,Namibe,20,AO,100,1551732137,-15.19,12.15,77.89,6.85
0,Broadstairs,20,GB,65,1551732530,51.36,1.44,46.0,18.34
0,Nantucket,90,US,69,1551732372,41.28,-70.1,39.99,8.05
0,Saint-Philippe,1,CA,49,1551732329,45.36,-73.48,28.0,21.92
0,Bud,75,NO,59,1551732317,62.91,6.91,35.6,11.41
0,Dunedin,0,NZ,39,1551732030,-45.87,170.5,79.0,3.0
0,Luderitz,0,NA,70,1551732523,-26.65,15.16,66.55,23.06
0,Aklavik,5,CA,67,1551729600,68.22,-135.01,24.8,6.93
0,Dubbo,0,AU,55,1551729600,-32.25,148.6,66.2,8.05
0,Butaritari,68,KI,100,1551732328,3.07,172.79,82.43,19.04
0,Westport,75,IE,93,1551732725,53.8,-9.52,45.0,9.17
0,Bushenyi,32,UG,85,1551732797,-0.54,30.19,60.83,2.71
0,Unity,0,CA,71,1551732533,52.44,-109.15,14.0,11.01
0,Castro,75,CL,58,1551726000,-42.48,-73.76,57.2,13.87
0,Entre Rios,48,BR,81,1551732798,-11.94,-38.08,83.02,10.98
0,Mehriz,0,IR,10,1551729600,31.58,54.44,55.4,13.87
0,Morlaix,36,FR,81,1551732787,48.58,-3.83,46.4,13.87
0,Kyzyl-Suu,12,KG,100,1551732799,42.34,78.0,21.68,1.14
0,Zhumadian,92,CN,82,1551732800,33.01,114.02,44.32,3.83
0,Ruwi,0,OM,52,1551729000,23.6,58.55,68.0,4.7
0,Port Elizabeth,1,US,48,1551732771,39.31,-74.98,41.0,14.99
0,New Baltimore,75,US,72,1551732784,42.68,-82.74,19.99,14.99
0,Fort Nelson,5,CA,47,1551729600,58.81,-122.69,15.8,3.36
0,Mahebourg,40,MU,74,1551732246,-20.41,57.7,80.6,3.36
0,Pampas,76,PE,91,1551732674,-12.4,-74.87,47.83,3.27
0,Atar,0,MR,18,1551732805,20.52,-13.05,66.77,7.18
0,Synya,68,RU,78,1551732805,65.37,58.04,-1.41,2.71
0,Berlevag,40,NO,57,1551729000,70.86,29.09,21.2,33.33
0,Olmos,80,PE,72,1551732806,-5.99,-79.75,81.04,0.69
0,Colesberg,0,ZA,42,1551732806,-30.72,25.1,69.92,11.21
0,Mont-de-Marsan,0,FR,66,1551732567,43.89,-0.5,53.01,4.7
0,Edd,0,ER,80,1551732807,13.93,41.69,64.57,2.37
0,Trat,8,TH,100,1551732807,12.25,102.51,78.61,7.07
0,Byron Bay,75,AU,93,1551732435,-28.65,153.62,70.0,11.1
0,Tarakan,20,ID,91,1551732588,3.3,117.63,81.62,6.85
0,Shirokiy,56,RU,91,1551732545,53.87,39.17,33.01,3.0
0,Longyearbyen,40,NO,70,1551729000,78.22,15.63,-2.21,2.24
0,Zubtsov,80,RU,88,1551732812,56.17,34.59,34.87,11.1
0,Escarcega,12,MX,32,1551732812,18.61,-90.75,96.65,2.82
0,Khatanga,88,RU,82,1551732432,71.98,102.47,3.05,12.66
0,Yuci,0,CN,69,1551729600,37.68,112.73,32.0,2.24
0,Ribeira Grande,75,PT,93,1551731400,38.52,-28.7,59.0,36.91
0,Souillac,75,FR,87,1551732488,45.6,-0.6,48.99,6.93
0,Kocevje,20,SI,71,1551732724,45.64,14.86,55.4,16.11
0,Salalah,0,OM,61,1551729000,17.01,54.1,77.0,3.36
0,Tuktoyaktuk,20,CA,92,1551729600,69.44,-133.03,8.6,4.7
0,Tooele,75,US,60,1551732700,40.53,-112.3,43.0,6.93
0,Los Llanos de Aridane,40,ES,72,1551731405,28.66,-17.92,62.6,8.05
0,Jinchang,20,CN,47,1551732815,38.52,102.19,5.12,2.59
0,Namatanai,88,PG,100,1551732525,-3.66,152.44,82.52,8.97
0,Lima,0,PE,65,1551731528,-12.06,-77.04,80.6,6.93
0,Clyde River,75,CA,91,1551731820,70.47,-68.59,-4.01,3.36
0,Cherskiy,64,RU,66,1551730819,68.75,161.3,2.42,9.31
0,Acari,76,BR,87,1551732504,-6.44,-36.64,75.23,6.62
0,Bocanda,92,CI,45,1551732816,7.06,-4.5,89.14,2.93
0,Toamasina,75,MG,88,1551729600,-18.17,49.38,78.8,6.93
0,Korem,20,ET,78,1551732820,12.51,39.52,52.42,0.13
0,Meulaboh,92,ID,100,1551732821,4.14,96.13,78.88,1.7
0,Saint-Augustin,0,FR,81,1551732488,44.83,-0.61,51.8,8.05
0,Nizhniy Kuranakh,68,RU,77,1551732821,58.84,125.49,9.8,5.5
0,North Platte,1,US,55,1551732375,41.12,-100.77,14.0,13.87
0,Puerto Ayora,40,EC,70,1551729600,-0.74,-90.35,86.0,11.41
0,Severo-Kurilsk,48,RU,100,1551730821,50.68,156.12,22.18,9.64
0,Ostrovnoy,0,RU,80,1551732538,68.05,39.51,0.4,13.67
0,Husavik,64,CA,83,1551730805,50.56,-96.99,15.01,17.0
0,Kenitra,0,MA,87,1551732402,34.26,-6.57,61.0,2.24
0,Saint-Pierre,0,FR,80,1551732424,48.95,4.24,42.8,17.22
0,Asosa,24,ET,31,1551732823,10.07,34.53,72.22,5.95
0,Riyadh,0,SA,25,1551729600,24.63,46.72,60.8,4.7
0,Sao Filipe,0,CV,89,1551732824,14.9,-24.5,72.58,18.03
0,Norman Wells,90,CA,92,1551729600,65.28,-126.83,19.4,3.36
0,Geraldton,90,CA,54,1551729600,49.72,-86.95,3.2,9.17
0,Nusaybin,40,TR,81,1551729600,37.08,41.21,46.4,10.29
0,Sorland,76,NO,67,1551729000,67.67,12.69,19.4,10.29
0,Vao,80,EE,95,1551732503,59.1,26.19,27.58,7.29
0,Narsaq,75,GL,58,1551729000,60.91,-46.05,28.4,5.82
0,Goderich,56,CA,44,1551732808,43.74,-81.71,17.01,3.0
0,Coquimbo,0,CL,68,1551729600,-29.95,-71.34,68.0,12.75
0,Lillooet,1,CA,32,1551729600,50.69,-121.94,26.6,9.17
0,Touros,88,BR,89,1551732527,-5.2,-35.46,80.27,7.96
0,Arraial do Cabo,40,BR,78,1551729600,-22.97,-42.02,82.4,9.17
0,Verkhnevilyuysk,80,RU,79,1551732828,63.45,120.31,8.59,5.95
0,Katsuura,20,JP,61,1551729600,33.93,134.5,46.4,9.17
0,Barsovo,40,RU,92,1551729600,61.17,73.17,17.6,6.71
0,Lavrentiya,80,RU,91,1551732332,65.58,-170.99,29.38,13.78
0,Esperance,20,TT,48,1551732352,10.24,-61.45,88.0,12.75
0,Kloulklubed,48,PW,100,1551732799,7.04,134.26,79.06,10.76
0,Kourou,92,GF,62,1551729600,5.16,-52.64,84.2,12.75
0,Malindi,20,KE,96,1551732829,-3.22,40.12,80.9,7.96
0,Ust-Tsilma,0,RU,54,1551732830,65.44,52.15,-11.22,4.61
0,Pundaguitan,68,PH,100,1551732830,6.37,126.17,78.61,7.4
0,Mayya,80,RU,76,1551729600,61.74,130.28,-11.21,2.24
0,Port Arthur,90,US,69,1551732607,29.9,-93.93,41.0,11.41
0,Inhambane,88,MZ,89,1551732794,-23.87,35.38,81.76,10.87
0,Jodhpur,0,IN,86,1551732831,26.3,73.04,56.92,6.73
0,Vestmannaeyjar,0,IS,100,1551732471,63.44,-20.27,30.55,6.62
0,Khon Kaen,0,TH,78,1551729600,16.43,102.84,75.2,3.36
0,Vostok,68,RU,79,1551732504,46.45,135.83,17.05,1.92
0,Daru,0,SL,45,1551732522,7.99,-10.85,80.86,6.51
0,Ilo,0,PE,61,1551729600,-17.65,-71.34,78.8,14.99
0,Plouzane,76,FR,75,1551732787,48.38,-4.62,46.4,12.75
0,Constitucion,5,MX,7,1551732017,23.99,-104.67,84.2,12.1
0,Beitbridge,8,ZA,77,1551732833,-22.21,29.99,78.34,7.74
0,Lianzhou,92,CN,95,1551732833,24.79,112.38,63.17,6.85
0,Nurlat,68,RU,82,1551732834,54.43,50.8,20.87,6.62
0,Puerto El Triunfo,40,SV,41,1551729000,13.27,-88.55,96.8,6.93
0,Victoria,75,BN,94,1551729600,5.28,115.24,78.8,2.71
0,Panaba,44,MX,40,1551732834,21.28,-88.27,92.38,7.18
0,Nouadhibou,0,MR,72,1551729600,20.93,-17.03,66.2,16.11
0,Pevek,32,RU,86,1551731599,69.7,170.27,-0.28,5.61
0,Mahibadhoo,88,MV,96,1551732835,3.78,72.97,84.1,9.86
0,Gravdal,75,NO,93,1551732723,59.79,5.78,42.01,8.05
0,Atherton,90,GB,86,1551732640,53.52,-2.49,42.8,13.87
0,Jumla,20,NP,91,1551732836,29.28,82.18,15.43,1.48
0,Fallon,20,US,65,1551729360,46.84,-105.12,6.8,19.46
0,Merauke,20,ID,100,1551732837,-8.49,140.4,76.27,5.5
0,Bijie,80,CN,87,1551732837,27.3,105.3,43.15,3.38
0,Caravelas,68,BR,100,1551732508,-17.73,-39.27,81.67,14.56
0,Vitina,20,GR,81,1551732809,41.43,24.76,48.99,3.36
0,Bolobo,44,CD,94,1551732838,-2.17,16.23,76.36,1.92
0,Sioux Lookout,90,CA,77,1551732420,50.1,-91.92,5.0,11.41
0,Kavieng,88,PG,100,1551732323,-2.57,150.8,82.88,5.39
0,Mnogovershinnyy,0,RU,61,1551732637,53.94,139.92,-3.39,4.5
0,Ikot Ekpene,76,NG,79,1551732842,5.18,7.71,78.2,6.62
0,Pisco,0,PE,30,1551729600,-13.71,-76.2,71.6,9.17
0,Chapais,40,CA,42,1551729600,49.78,-74.86,8.6,2.24
0,Shenjiamen,88,CN,87,1551732842,29.96,122.3,49.22,11.43
0,Port-Gentil,20,GA,88,1551729600,-0.72,8.78,80.6,3.36
0,Pacific Grove,40,US,54,1551732562,36.62,-121.92,61.0,8.05
0,Nome,90,US,65,1551732324,30.04,-94.42,41.0,11.41
0,Cidreira,12,BR,64,1551732331,-30.17,-50.22,83.11,15.68
0,Airai,8,TL,88,1551732391,-8.93,125.41,67.0,1.25
0,Bridlington,0,GB,80,1551732662,54.08,-0.19,42.01,8.05
0,Port Moresby,20,PG,88,1551729600,-9.47,147.16,75.2,3.36
0,Yellowknife,20,CA,71,1551732347,62.45,-114.38,8.01,19.46
0,Adrar,0,DZ,13,1551729600,27.87,-0.29,69.8,9.17
0,Lethem,0,GY,32,1551732846,3.38,-59.8,95.71,13.44
0,Lalibela,24,ET,98,1551732846,12.04,39.05,46.48,2.04
0,Ponta do Sol,92,BR,84,1551732850,-20.63,-46.0,70.87,4.38
0,Tabou,0,CI,91,1551732226,4.42,-7.36,85.4,9.42
0,East London,32,ZA,100,1551732850,-33.02,27.91,73.84,17.81
0,Dali,12,CN,84,1551732851,25.6,100.24,46.93,4.61
0,Petropavlovsk-Kamchatskiy,0,RU,65,1551729600,53.05,158.65,5.0,2.24
0,Coihaique,75,CL,58,1551729600,-45.58,-72.07,53.6,8.05
0,Trairi,92,BR,100,1551732555,-3.28,-39.27,80.14,6.73
0,Talnakh,88,RU,87,1551732435,69.49,88.39,24.47,14.45
0,Mogadishu,20,SO,100,1551732517,2.04,45.34,80.27,20.15
0,Orodara,0,BF,20,1551729600,10.98,-4.92,84.2,5.82
0,Bambous Virieux,40,MU,74,1551732845,-20.34,57.76,80.6,3.36
0,Presidencia Roque Saenz Pena,68,AR,43,1551732854,-26.79,-60.44,95.3,14.12
0,Broome,40,GB,70,1551732374,52.47,1.45,46.0,16.11
0,Mahajanga,20,MG,94,1551729600,-15.72,46.32,78.8,5.39
0,Kunming,75,CN,57,1551732627,25.04,102.71,54.0,13.42
0,Areosa,40,PT,81,1551732733,41.72,-8.86,55.0,11.41
0,Moron,44,VE,72,1551732858,10.49,-68.2,78.88,3.38
0,Uberlandia,92,BR,86,1551732683,-18.92,-48.28,73.52,5.73
0,Chernyshevskiy,36,RU,80,1551732333,63.01,112.47,11.42,7.96
0,Elesbao Veloso,80,BR,88,1551732859,-6.2,-42.14,76.9,4.94
0,Vanimo,64,PG,100,1551732855,-2.67,141.3,82.21,12.77
0,Chik,90,RU,80,1551729600,54.99,82.44,35.6,11.18
0,Kununurra,0,AU,88,1551729600,-15.77,128.74,75.2,3.36
0,Tessalit,0,ML,22,1551732276,20.2,1.01,63.85,9.08
0,Sabang,88,PH,95,1551732389,13.72,123.58,75.95,9.75
0,Bonthe,0,SL,70,1551732870,7.53,-12.5,80.41,4.94
0,Machhlishahr,0,IN,78,1551732870,25.69,82.41,62.23,4.38
0,Egvekinot,80,RU,92,1551732383,66.32,-179.17,27.08,8.52
0,Alzamay,88,RU,87,1551732871,55.55,98.67,25.33,5.17
0,Bilma,0,NE,21,1551732549,18.69,12.92,59.03,8.41
0,Rantoul,90,US,66,1551732743,40.31,-88.16,14.0,14.99
0,Moctezuma,24,MX,17,1551732872,29.81,-109.68,77.08,2.71
0,Benghazi,0,LY,100,1551732872,32.12,20.07,60.2,9.19
0,Arequipa,40,PE,59,1551729600,-16.4,-71.54,64.4,10.29
0,Walvis Bay,0,NA,77,1551729725,-22.95,14.51,68.0,8.05
0,Shingu,0,JP,100,1551732435,33.72,135.99,52.82,21.72
0,Hofn,12,IS,100,1551732361,64.25,-15.21,34.24,23.96
0,Dryden,90,CA,71,1551732420,49.79,-92.84,5.0,12.75
0,Kosonsoy,76,UZ,70,1551729600,41.25,71.55,46.4,9.17
0,Nuqui,90,CO,88,1551729600,5.71,-77.27,80.6,3.6
0,Port Macquarie,64,AU,93,1551732845,-31.43,152.91,64.99,5.06
0,Uruzgan,0,AF,65,1551732874,32.93,66.63,7.87,1.59
0,Palmer,40,US,85,1551732264,61.6,-149.11,28.99,2.93
0,Grand-Santi,92,GF,55,1551732875,4.27,-54.38,84.95,4.38
0,Putina,75,PE,31,1551729600,-14.91,-69.87,64.4,6.93
0,Koch Bihar,24,IN,100,1551732875,26.32,89.46,56.2,3.71
0,Luanda,40,AO,83,1551729600,-8.83,13.24,82.4,5.82
0,Makarov,0,RU,73,1551732876,48.62,142.78,9.98,3.94
0,Tahe,0,CN,79,1551732876,52.34,124.71,7.55,4.83
0,Ferrol,20,ES,81,1551732672,43.48,-8.23,53.01,10.29
0,Beaverlodge,5,CA,50,1551729600,55.21,-119.43,6.8,10.29
0,Santa Maria,12,BR,52,1551732879,-29.69,-53.81,87.34,7.29
0,Rumford,90,US,64,1551732608,44.55,-70.55,36.0,5.82
0,Laguna,40,MX,28,1551728760,27.52,-110.01,80.6,6.93
0,Seymchan,80,RU,74,1551732879,62.93,152.39,-4.11,9.64
0,Manga,0,BF,27,1551732880,11.67,-1.07,77.98,6.62
0,Ken Caryl,20,US,57,1551732868,39.58,-105.11,27.0,3.36
0,Shache,8,CN,53,1551732863,38.42,77.24,37.99,2.37
0,Vardo,1,US,40,1551732427,39.62,-77.74,39.0,17.22
0,Aykhal,36,RU,78,1551732881,65.95,111.51,9.31,8.41
0,Dezhou,88,CN,78,1551732881,37.45,116.31,48.91,10.98
0,Bagdarin,0,RU,56,1551732881,54.44,113.59,-3.97,2.37
0,Bambanglipuro,12,ID,98,1551732882,-7.95,110.28,69.97,2.82
0,Beringovskiy,8,RU,83,1551732389,63.05,179.32,29.78,19.04
0,Mitsamiouli,20,KM,78,1551729600,-11.38,43.28,80.6,4.7
0,Ridgecrest,75,US,36,1551732676,35.62,-117.67,66.99,4.7
0,Codrington,40,AU,93,1551731224,-28.95,153.24,68.0,3.6
0,Erice,0,IT,50,1551732682,38.04,12.59,59.0,11.41
0,Great Falls,1,US,64,1551732716,47.5,-111.29,7.0,11.41
0,Teguldet,20,RU,90,1551732884,57.31,88.17,25.82,6.62
0,Balfour,0,CA,40,1551732884,49.62,-116.96,18.08,1.7
0,Ati,0,TD,24,1551732546,13.21,18.34,84.95,11.32
0,Tawang,76,BT,80,1551732885,27.59,91.87,30.01,1.03
0,Tommot,64,RU,73,1551732453,58.97,126.27,9.13,6.4
0,Lazaro Cardenas,5,MX,17,1551732843,28.39,-105.62,75.99,13.87
0,Baykit,68,RU,85,1551732886,61.68,96.39,21.55,5.95
0,Paamiut,48,GL,100,1551732841,61.99,-49.67,26.59,8.97
0,Pahrump,1,US,47,1551732392,36.21,-115.98,66.0,11.41
0,Springfield,1,US,44,1551732821,37.22,-93.29,23.0,10.29
0,Weyburn,80,CA,84,1551732795,49.67,-103.85,9.0,31.0
0,Troitskoye,44,RU,89,1551732887,52.98,84.68,26.77,3.15
0,Salto,90,UY,69,1551731812,-31.39,-57.96,77.0,10.29
0,Verkhnyaya Maksakovka,0,RU,83,1551729600,61.63,50.97,-14.81,4.47
0,Fortuna,0,ES,62,1551732364,38.18,-1.13,60.8,6.93
0,Bialogard,80,PL,85,1551732648,54.01,15.99,42.01,24.52
0,Lompoc,20,US,55,1551731296,34.64,-120.46,64.99,9.17
0,Douentza,8,ML,38,1551732892,15.01,-2.95,64.93,4.94
0,Alofi,40,NU,83,1551729600,-19.06,-169.92,78.8,14.99
0,Yulara,0,AU,25,1551729600,-25.24,130.99,75.2,6.93
0,Pascagoula,75,US,57,1551731700,30.37,-88.56,48.2,14.99
0,Kutum,44,SD,34,1551732893,14.2,24.66,66.32,8.41
0,Kalmunai,20,LK,100,1551732433,7.42,81.82,72.94,3.15
0,Half Moon Bay,75,US,93,1551732754,37.46,-122.43,60.01,4.16
0,Sipoo,75,FI,92,1551732766,60.38,25.27,28.0,8.05
0,Muros,75,ES,93,1551732813,42.77,-9.06,53.01,5.82
0,Sobolevo,92,RU,95,1551732881,54.43,31.9,40.27,13.44
0,Loandjili,20,CG,94,1551729600,-4.77,11.87,78.8,4.7
0,Jiexiu,0,CN,77,1551732895,37.02,111.92,28.21,2.59
0,Katakwi,0,UG,69,1551732896,1.91,33.96,69.79,5.17
0,Teruel,0,ES,53,1551731400,40.34,-1.11,62.6,5.82
0,Karasburg,0,NA,48,1551732898,-28.01,18.75,70.87,8.19
0,Faanui,68,PF,100,1551732370,-16.48,-151.75,82.66,6.96
0,Hailar,56,CN,78,1551732899,49.2,119.7,14.26,8.86
0,Tahoua,48,NE,51,1551732899,14.89,5.26,74.15,3.83
0,Ranong,0,TH,100,1551732899,9.96,98.62,80.32,5.95
0,Dalvik,75,SE,100,1551732606,57.79,14.13,39.0,6.93
0,Bereda,20,ES,81,1551732313,43.27,-7.54,52.0,8.05
0,Krasnoarmeysk,90,RU,93,1551732320,56.12,38.15,36.0,6.71
0,Vila Franca do Campo,75,PT,93,1551729600,37.72,-25.43,62.6,27.51
0,Saint Anthony,1,US,53,1551732635,43.97,-111.68,28.0,3.36
0,Ocos,40,GT,52,1551729600,14.51,-92.19,91.4,6.93
0,Acambaro,5,MX,27,1551728580,20.03,-100.73,86.0,11.41
0,Orlik,0,RU,55,1551732906,52.51,99.83,-1.68,1.92
0,Junagarh,0,IN,96,1551732909,19.86,82.94,64.21,2.71
0,Sosnovo-Ozerskoye,8,RU,59,1551732373,52.53,111.54,2.65,7.52
0,Bayangol,0,MN,61,1551732910,48.91,106.09,9.8,2.82
0,Spearfish,1,US,43,1551732716,44.49,-103.86,21.99,19.46
0,Okhotsk,68,RU,100,1551732914,59.36,143.24,-0.24,5.17
0,Cayenne,100,GF,62,1551729600,4.94,-52.33,84.2,12.75
0,Provideniya,88,RU,96,1551731390,64.42,-173.23,30.37,10.98
0,Halifax,90,CA,100,1551732617,44.65,-63.58,35.6,4.7
0,Show Low,1,US,37,1551732627,34.25,-110.03,60.01,8.05
0,Taltal,0,CL,66,1551732918,-25.41,-70.49,72.49,4.05
0,Muravlenko,88,RU,83,1551732919,63.79,74.5,13.72,14.9
0,Ust-Kuyga,64,RU,78,1551732919,70.0,135.55,-18.51,3.15
0,Rome,0,IT,76,1551732665,41.89,12.48,57.0,20.8
0,Tomigusuku,75,JP,59,1551729600,26.18,127.67,62.6,4.7
0,Yenagoa,36,NG,92,1551732920,4.92,6.26,75.46,4.94
0,Port Lincoln,80,AU,100,1551732921,-34.72,135.86,61.1,6.17
0,Pacifica,90,US,76,1551732920,37.61,-122.49,57.0,5.06
0,Kokopo,48,PG,100,1551732922,-4.34,152.27,79.78,3.15
0,Victor Harbor,75,AU,77,1551732921,-35.55,138.62,61.0,9.17
0,Bealanana,68,MG,94,1551732922,-14.54,48.75,64.25,3.15
0,Canhandugan,88,PH,99,1551732922,11.13,124.78,77.35,11.32
0,Kouango,8,CF,78,1551732923,4.99,19.98,75.01,5.17
0,Iraucuba,76,BR,95,1551732923,-3.75,-39.78,75.73,2.71
0,Sitka,12,US,65,1551732361,37.17,-99.65,18.0,7.0
0,Sabha,0,LY,44,1551732794,27.03,14.43,52.24,6.96
0,Morros,75,BR,83,1551729600,-2.87,-44.04,78.8,11.41
0,Boa Vista,75,BR,54,1551729600,2.82,-60.67,78.8,8.05
0,Matlock,40,GB,80,1551732925,53.14,-1.55,43.0,17.22
0,Delmas,20,HT,55,1551732916,18.55,-72.29,86.0,16.11
0,Kahului,40,US,57,1551732402,20.89,-156.47,75.2,19.46
0,Gardelegen,0,DE,70,1551732919,52.53,11.39,46.99,20.8
0,Arnedo,20,ES,70,1551732338,42.23,-2.1,50.0,8.05
0,Coahuayana,0,MX,28,1551732715,18.62,-100.35,88.24,3.04
0,Sandovo,88,RU,91,1551732928,58.46,36.41,24.2,8.08
0,Tiksi,0,RU,60,1551732365,71.64,128.87,-13.15,7.96
0,Padang,56,ID,100,1551732480,-0.92,100.36,82.43,10.98
0,Chauk,8,MM,79,1551732929,20.89,94.82,66.05,5.17
0,Lianran,75,CN,57,1551732927,24.92,102.47,54.0,13.42
0,Enshi,92,CN,99,1551732929,30.29,109.48,43.28,1.59
0,Yarega,0,RU,61,1551732519,63.43,53.58,-7.98,5.73
0,Rokytne,48,UA,86,1551732930,51.27,27.23,43.37,13.11
0,Kupang,8,ID,100,1551732826,-10.16,123.6,77.98,3.71
0,Banda Aceh,8,ID,98,1551732931,5.56,95.32,72.98,2.15
0,Biak,20,ID,99,1551732387,-0.91,122.88,76.63,2.93
0,Kushiro,0,JP,63,1551732900,43.11,144.15,6.02,2.59
0,Takaka,0,NZ,58,1551732902,-40.86,172.81,73.99,1.01
0,Morant Bay,20,JM,58,1551729600,17.88,-76.41,82.4,26.4
0,Tshikapa,88,CD,99,1551732531,-6.42,20.79,69.25,2.37
0,Zhezkazgan,0,KZ,80,1551732518,47.8,67.71,9.53,9.64
0,Kautokeino,0,NO,75,1551732936,69.01,23.04,-1.63,7.63
0,Ossora,64,RU,90,1551732939,59.24,163.07,12.1,9.64
0,Vestmanna,88,FO,69,1551732600,62.16,-7.17,39.2,28.86
0,Tazovskiy,68,RU,85,1551732940,67.47,78.7,17.45,21.16
0,Huaral,0,PE,65,1551729600,-11.5,-77.21,80.6,6.93
0,Krasnogvardeyskoye,44,RU,69,1551732941,45.84,41.51,36.08,13.56
0,Ust-Ilimsk,56,RU,75,1551732942,57.96,102.73,20.42,5.28
0,Zhenlai,48,CN,63,1551732942,45.84,123.2,28.75,4.61
0,Gushikawa,75,JP,82,1551729600,26.35,127.87,62.6,4.7
0,Togur,92,RU,91,1551732944,58.36,82.83,32.08,11.32
0,Lata,8,IN,93,1551732945,30.78,78.62,27.76,1.81
0,Porto Novo,75,BR,65,1551729600,-23.68,-45.44,78.8,4.7
0,Salym,56,RU,75,1551732998,60.06,71.48,19.21,7.96
0,Ilulissat,75,GL,72,1551729000,69.22,-51.1,10.4,6.93
0,Makakilo City,20,US,49,1551732953,21.35,-158.09,72.0,13.87
0,Papara,40,BR,74,1551732959,-3.98,-38.73,82.4,8.05
0,Jiwani,0,PK,90,1551733000,25.05,61.74,61.42,5.73
0,Zhangye,32,CN,70,1551732860,38.94,100.46,18.85,4.61
0,Campanario,75,HN,48,1551729600,14.88,-86.25,86.0,4.7
0,Umm Kaddadah,0,SD,26,1551733005,13.6,26.69,70.37,10.2
0,Liverpool,40,GB,86,1551732980,53.41,-2.98,42.8,10.29
0,Dergachi,80,RU,91,1551733005,51.24,48.77,29.78,9.75
0,San Patricio,0,PY,43,1551733006,-26.98,-56.83,91.75,4.27
0,Bose,0,IT,46,1551732984,45.46,8.01,53.01,5.82
0,Finschhafen,80,PG,98,1551733006,-6.6,147.85,73.12,3.15
0,Pangnirtung,90,CA,59,1551729600,66.15,-65.72,1.4,2.24
0,Leningradskiy,56,RU,98,1551733007,69.38,178.42,7.42,3.27
0,Hobyo,12,SO,89,1551732622,5.35,48.53,76.99,11.99
0,Buala,56,SB,90,1551732919,-8.15,159.59,82.88,3.83
0,Maxixe,88,MZ,89,1551733007,-23.86,35.35,81.76,10.87
0,Axams,75,AT,80,1551732432,47.23,11.28,39.2,2.24
0,Cimarron Hills,40,US,61,1551732772,38.86,-104.7,30.0,5.82
0,Inuvik,20,CA,73,1551729600,68.36,-133.71,24.8,3.36
0,Pitimbu,75,BR,94,1551731100,-7.47,-34.81,77.0,4.7
0,Tutoia,20,BR,58,1551729600,-2.76,-42.27,84.2,11.41
0,Ballina,40,IE,93,1551732725,54.11,-9.15,45.0,11.41
0,Deputatskiy,12,RU,62,1551732924,69.3,139.9,-35.34,2.71
0,San Carlos de Bariloche,40,AR,46,1551729600,-41.13,-71.31,53.6,31.09
0,Savannah Bight,0,HN,91,1551733010,16.45,-85.85,81.35,19.04
0,Russell,20,AR,27,1551729600,-33.01,-68.8,87.8,9.17
0,Puerto Escondido,20,MX,70,1551728400,15.86,-97.07,84.2,11.41
0,Carutapera,80,BR,88,1551732899,-1.2,-46.02,79.15,7.63
0,Shambu,36,ET,88,1551733011,9.57,37.1,52.15,3.04
0,Kidal,0,ML,22,1551733011,18.44,1.41,60.79,6.51
0,Sete,36,NP,91,1551733012,27.58,86.44,30.73,1.7
0,Hami,44,CN,47,1551733012,42.84,93.51,30.64,4.72
0,Bukama,36,CD,91,1551733012,-9.2,25.85,70.06,5.73
0,Tucumcari,90,US,73,1551730260,35.17,-103.73,19.4,6.17
0,Kovur,0,IN,64,1551733013,14.5,79.99,78.38,10.87
0,Dingle,56,PH,83,1551732863,11.0,122.67,75.73,13.22
0,Gat,8,SN,43,1551731400,14.69,-16.54,71.6,20.8
0,Mardin,40,TR,81,1551729600,37.32,40.72,46.4,10.29
0,Rio de Janeiro,40,BR,79,1551732608,-22.91,-43.21,84.2,8.05
0,Bitung,76,ID,100,1551733017,1.44,125.19,79.15,10.2
0,Eydhafushi,92,MV,97,1551733017,5.1,73.07,84.01,8.19
0,Bonavista,32,CA,89,1551732413,48.65,-53.11,24.01,5.01
0,Qaqortoq,75,GL,58,1551729000,60.72,-46.03,28.4,5.82
0,Lanzhou,0,CN,46,1551729600,36.06,103.82,30.2,4.47
0,San Esteban,0,CL,28,1551732933,-32.8,-70.58,82.0,5.82
0,Atasu,0,KZ,83,1551733020,48.68,71.64,11.92,11.21
0,Jalu,0,LY,64,1551733022,29.03,21.55,53.45,8.19
0,Atbasar,80,KZ,86,1551732882,51.81,68.36,15.88,19.04
0,Puerto Madryn,24,AR,55,1551733046,-42.77,-65.04,69.25,12.55
0,Rosarito,40,CO,60,1551729600,4.91,-75.23,87.8,5.82
0,Mount Isa,0,AU,72,1551729600,-20.73,139.49,68.0,2.93
0,Worthing,20,GB,75,1551733047,50.81,-0.37,44.01,13.87
0,Coolum Beach,100,AU,86,1551732606,-26.53,153.09,75.99,7.96
0,Turukhansk,88,RU,87,1551733051,65.8,87.96,25.73,20.83
0,Tyret Pervaya,20,RU,80,1551733055,53.67,102.31,18.17,12.1
0,Viedma,64,AR,30,1551733055,-40.81,-62.99,75.32,7.4
0,Maniitsoq,20,GL,71,1551732814,65.42,-52.9,12.91,4.38
0,Oktyabrskiy,90,RU,95,1551732320,55.61,37.97,36.0,2.24
0,Waipawa,0,NZ,48,1551732557,-39.94,176.59,70.0,5.99
0,Marzuq,12,YE,91,1551733056,14.4,46.47,55.07,2.37
0,Praia,0,BR,45,1551729600,-20.25,-43.81,82.4,6.93
0,Comodoro Rivadavia,20,AR,22,1551729600,-45.87,-67.48,68.0,28.86
0,Turkmenabat,0,TM,81,1551729600,39.09,63.58,44.6,6.93
0,Kaabong,32,UG,61,1551733057,3.51,34.14,64.52,2.82
0,Haines Junction,24,CA,79,1551732769,60.75,-137.51,9.98,2.71
0,Arkhara,80,RU,72,1551733058,49.42,130.09,17.5,3.71
0,Mabaruma,44,GY,70,1551733059,8.2,-59.78,81.67,9.86
0,Quatre Cocos,40,MU,74,1551732845,-20.21,57.76,80.6,3.36
0,Labuhan,20,ID,94,1551732901,-2.54,115.51,71.5,1.14
0,Dhidhdhoo,68,MV,98,1551733064,6.88,73.1,83.78,6.62
0,Matagami,0,NG,88,1551733073,9.67,8.4,66.91,3.49
0,Clinton,1,US,69,1551733073,30.87,-91.02,50.0,14.99
0,Concarneau,92,FR,75,1551733036,47.88,-3.92,48.0,18.34
0,Christchurch,8,NZ,63,1551732786,-43.53,172.64,71.01,5.82
0,Berdigestyakh,76,RU,78,1551733075,62.1,126.7,6.34,6.4
0,Port Blair,36,IN,100,1551733075,11.67,92.75,80.86,7.18
0,Gbarnga,56,LR,52,1551732913,7.0,-9.47,83.42,3.71
0,Baghdad,0,IQ,62,1551729600,33.3,44.38,51.8,3.83
0,Vila do Maio,20,CV,73,1551729600,15.13,-23.22,69.8,23.04
0,Beni Mazar,64,EG,52,1551733080,28.5,30.8,52.96,3.6
0,Shakawe,64,BW,63,1551733080,-18.36,21.84,76.85,2.82
0,Acucena,0,BR,41,1551729600,-19.07,-42.55,91.4,8.05
0,Flinders,0,AU,100,1551733038,-34.58,150.85,73.0,6.93
0,Lhokseumawe,0,ID,100,1551733081,5.18,97.15,82.12,5.95
0,Tonantins,64,BR,76,1551733081,-2.86,-67.77,85.45,2.15
0,Biu,12,NG,26,1551733081,10.61,12.19,80.9,8.63
0,Khuzhir,0,RU,80,1551733082,53.19,107.35,6.61,1.92
0,Mutare,0,MZ,89,1551733082,-18.97,32.67,66.19,2.59
0,Isangel,8,VU,94,1551733082,-19.55,169.27,83.11,6.29
0,Vrangel,76,RU,100,1551733092,42.73,133.08,33.88,2.71
0,Klaksvik,92,FO,69,1551732600,62.23,-6.59,39.2,28.86
0,Chimore,20,BO,87,1551733093,-16.98,-65.13,81.62,3.6
0,Reconquista,90,AR,94,1551731700,-29.14,-59.64,69.8,14.99
0,Itarema,88,BR,96,1551733094,-2.92,-39.92,76.81,3.71
0,Macau,92,BR,94,1551733094,-5.11,-36.64,77.35,4.16
0,Huarmey,32,PE,57,1551733095,-10.07,-78.15,77.93,4.16
0,Lasa,20,CY,81,1551732404,34.92,32.53,51.8,6.93
0,Naze,40,NG,83,1551729600,5.43,7.07,82.4,2.24
0,Dong Hoi,24,VN,99,1551732926,17.48,106.6,74.02,8.75
0,Sinnamary,92,GF,90,1551732798,5.38,-52.96,80.27,11.65
0,Jertih,75,MY,94,1551729600,5.74,102.5,69.8,7.18
0,Imeni Poliny Osipenko,0,RU,56,1551733102,52.42,136.49,-5.68,2.59
0,Oranjemund,68,ZA,90,1551733102,-28.55,16.43,64.3,13.67
0,Bam,0,IR,65,1551733107,29.11,58.36,35.0,2.93
0,Sao Jose da Coroa Grande,92,BR,84,1551732877,-8.9,-35.15,80.72,7.07
0,Tual,56,ID,100,1551733107,-5.67,132.75,81.94,9.42
0,Surt,0,LY,100,1551733108,31.21,16.59,51.88,3.49
0,Beloha,8,MG,91,1551733108,-25.17,45.06,74.78,6.62
0,Barranca,24,PE,98,1551733108,-10.75,-77.76,74.83,6.96
0,Tiznit,0,MA,96,1551733108,29.7,-9.73,56.2,3.38
0,Saint-Francois,90,FR,75,1551732324,46.42,3.91,45.0,4.7
0,Abulug,0,PH,98,1551733109,18.45,121.45,72.22,10.98
0,Karratha,20,AU,53,1551733110,-20.74,116.85,81.49,8.63
0,Cockburn Town,0,TC,95,1551732850,21.46,-71.14,79.42,10.76
0,Aloleng,0,PH,100,1551733113,16.13,119.78,73.57,10.98
0,Marawi,0,PH,87,1551732382,8.0,124.29,70.0,5.01
0,Kibala,20,TD,38,1551729600,9.11,18.35,93.2,6.96
0,Guane,12,CU,49,1551733114,22.2,-84.09,85.85,5.5
0,Saint-Agapit,75,CA,79,1551732915,46.56,-71.44,28.99,14.99
0,Talaya,0,RU,64,1551732921,55.79,84.89,36.0,15.66
