,City,Cloudiness,Country,Humidity,Date,Latitude,Longitude,Max Temp,Wind Speed
0,Avarua,100,CK,65,1551733200,-21.21,-159.78,80.6,9.17
0,Ilulissat,75,GL,78,1551732600,69.22,-51.1,12.2,6.93
0,Tuktoyaktuk,5,CA,85,1551733200,69.44,-133.03,10.4,8.05
0,Constitucion,5,MX,5,1551734417,23.99,-104.67,86.0,21.92
0,Namatanai,88,PG,100,1551734588,-3.66,152.44,82.52,8.97
0,Tiksi,0,RU,60,1551734659,71.64,128.87,-13.15,7.96
0,Qaanaaq,0,GL,92,1551734939,77.48,-69.36,-8.2,7.4
0,Mataura,44,NZ,77,1551734406,-46.19,168.86,66.99,1.99
0,Mehamn,90,NO,72,1551732600,71.03,27.85,19.4,29.97
0,Nador,0,MA,63,1551733200,35.17,-2.93,62.6,17.22
0,Rio Grande,0,BR,74,1551733200,-32.03,-52.1,82.4,11.41
0,Dzaoudzi,20,YT,83,1551733200,-12.79,45.27,82.4,9.17
0,Victoria,75,BN,94,1551733200,5.28,115.24,78.8,2.71
0,Bathsheba,40,BB,69,1551733200,13.22,-59.52,80.6,19.46
0,Tessalit,0,ML,22,1551734948,20.2,1.01,63.85,9.08
0,Panama City,1,US,58,1551734897,30.16,-85.65,53.6,13.87
0,Upernavik,88,GL,100,1551734906,72.79,-56.15,8.05,4.61
0,Carnarvon,0,ZA,47,1551734959,-30.97,22.13,67.58,11.32
0,Nacala,92,MZ,100,1551734960,-14.56,40.69,77.12,5.73
0,Busselton,0,AU,50,1551734712,-33.64,115.35,64.0,27.76
0,Jamestown,64,AU,89,1551734922,-33.21,138.6,64.25,3.04
0,Puerto Ayora,75,EC,66,1551733200,-0.74,-90.35,86.0,12.75
0,Loukhi,44,RU,76,1551734903,66.08,33.04,4.45,5.61
0,Matara,76,PE,75,1551734663,-13.74,-72.9,54.58,2.48
0,Bubaque,0,GW,75,1551734962,11.28,-15.83,83.47,9.86
0,Hobart,75,AU,93,1551734839,-42.88,147.33,55.99,4.7
0,Semnan,0,IR,34,1551729600,35.58,53.39,48.2,2.24
0,Albany,20,US,46,1551734525,42.65,-73.75,33.01,21.92
0,Mar del Plata,24,AR,37,1551734963,-46.43,-67.52,64.88,25.86
0,Salisbury,20,GB,93,1551734826,51.07,-1.8,44.01,16.11
0,Saldanha,88,PT,73,1551734584,41.42,-6.55,44.45,3.15
0,Vaini,0,IN,86,1551734907,15.34,74.49,59.8,2.48
0,Castro,75,CL,58,1551733200,-42.48,-73.76,59.0,17.22
0,Ayan,0,TR,67,1551734977,40.67,33.6,18.94,1.03
0,New Norfolk,75,AU,93,1551734839,-42.78,147.06,55.99,4.7
0,Balikpapan,20,ID,94,1551733200,-1.24,116.86,78.8,3.36
0,Shizuishan,0,CN,68,1551734981,39.02,106.36,13.36,1.92
0,Nyrob,56,RU,81,1551734982,60.74,56.73,7.15,5.28
0,Chokurdakh,48,RU,60,1551734976,70.62,147.9,-20.76,3.15
0,Mayo,20,CA,50,1551733200,63.59,-135.9,5.0,3.36
0,Cururupu,100,BR,87,1551734985,-1.82,-44.87,79.06,5.61
0,Mahon,40,IE,86,1551734991,51.89,-8.4,42.01,10.29
0,Bluff,0,AU,69,1551734324,-23.58,149.07,70.51,12.21
0,Cidreira,12,BR,64,1551734911,-30.17,-50.22,83.11,15.68
0,Nikolskoye,90,RU,86,1551734874,59.7,30.79,28.4,4.47
0,Yellowknife,20,CA,66,1551734750,62.45,-114.38,10.4,14.99
0,Grand Gaube,20,MU,78,1551734645,-20.01,57.66,80.6,1.12
0,Ushuaia,75,AR,71,1551729600,-54.81,-68.31,55.4,13.87
0,Shimoda,75,JP,87,1551734541,34.7,138.93,48.2,4.7
0,Labuhan,20,ID,94,1551734474,-2.54,115.51,71.5,1.14
0,Lianzhou,92,CN,95,1551735033,24.79,112.38,63.17,6.85
0,Vila Velha,40,BR,83,1551734894,-3.71,-38.6,81.0,6.93
0,Cape Town,0,ZA,72,1551734464,-33.93,18.42,64.99,14.99
0,Bredasdorp,24,ZA,68,1551734184,-34.53,20.04,64.4,1.12
0,Punta Arenas,40,CL,46,1551734607,-53.16,-70.91,50.0,28.86
0,Rikitea,32,PF,98,1551734222,-23.12,-134.97,80.77,15.46
0,Airai,8,TL,88,1551734908,-8.93,125.41,67.0,1.25
0,Krasnyy Chikoy,0,RU,58,1551735078,50.36,108.75,2.83,2.04
0,Pisco,0,PE,30,1551733200,-13.71,-76.2,71.6,8.05
0,Humberto de Campos,92,BR,100,1551735079,-2.6,-43.46,74.87,3.27
0,Novikovo,20,UA,100,1551735080,45.05,34.56,29.29,6.73
0,Butaritari,68,KI,100,1551734679,3.07,172.79,82.43,19.04
0,Sorong,80,ID,100,1551734612,-0.86,131.25,80.5,6.62
0,Tabriz,75,IR,80,1551733200,38.08,46.29,39.2,1.92
0,Yaan,56,NG,77,1551734799,7.38,8.57,80.23,11.99
0,Inverness,0,GB,80,1551735071,57.48,-4.23,39.99,12.75
0,Husavik,64,CA,79,1551734405,50.56,-96.99,12.0,15.01
0,Manggar,0,ID,100,1551735154,-2.88,108.27,73.3,3.27
0,Mahibadhoo,88,MV,96,1551735158,3.78,72.97,84.1,9.86
0,Gucheng,92,CN,97,1551735182,32.27,111.65,44.86,3.38
0,East London,32,ZA,100,1551735101,-33.02,27.91,73.84,17.81
0,Dikson,76,RU,94,1551735186,73.51,80.55,0.22,26.64
0,Atuona,20,PF,100,1551734895,-9.8,-139.03,81.62,15.01
0,Tasiilaq,8,GL,100,1551734934,65.61,-37.64,6.38,7.18
0,Lavrentiya,80,RU,91,1551735208,65.58,-170.99,29.38,13.78
0,Dubbo,0,AU,46,1551733200,-32.25,148.6,73.4,5.82
0,Alpena,90,US,47,1551735144,45.06,-83.43,14.0,10.29
0,Rong Kwang,8,TH,70,1551735211,18.34,100.32,65.6,3.15
0,Amapa,20,HN,59,1551735042,15.09,-87.97,91.0,17.22
0,Kindu,56,CD,97,1551735212,-2.95,25.92,72.94,2.04
0,Half Moon Bay,90,US,100,1551735122,37.46,-122.43,59.0,3.36
0,Cristalina,92,BR,77,1551735126,-16.77,-47.61,75.23,5.61
0,Guerrero Negro,24,MX,61,1551734971,27.97,-114.04,68.57,9.31
0,Baltiysk,40,RU,75,1551733200,54.66,19.91,44.6,8.95
0,Iskateley,20,RU,73,1551735222,67.68,53.15,0.13,8.19
0,Port Elizabeth,20,US,47,1551735222,39.31,-74.98,41.0,14.99
0,Ca Mau,68,VN,100,1551734475,9.18,105.15,70.82,4.16
0,Hithadhoo,92,MV,100,1551735064,-0.6,73.08,83.65,6.06
0,Vestmannaeyjar,0,IS,100,1551735226,63.44,-20.27,30.55,6.62
0,Bambous Virieux,20,MU,78,1551734645,-20.34,57.76,80.6,1.12
0,Marawi,0,PH,86,1551735154,8.0,124.29,70.0,4.0
0,Severo-Kurilsk,48,RU,100,1551734931,50.68,156.12,22.18,9.64
0,Teya,75,MX,30,1551735022,21.05,-89.07,96.8,5.82
0,Olinda,75,EC,74,1551735171,-2.03,-79.75,86.0,10.29
0,Taoudenni,0,ML,22,1551735249,22.68,-3.98,58.27,5.17
0,Iqaluit,90,CA,76,1551735183,63.75,-68.52,-4.01,2.24
0,Wajir,64,KE,72,1551735249,1.75,40.07,79.1,4.94
0,Gumdag,48,TM,78,1551735249,39.2,54.59,44.27,10.31
0,Sault Sainte Marie,90,CA,65,1551733980,46.49,-84.36,8.6,3.36
0,Longhua,92,CN,98,1551735251,29.21,106.21,51.34,3.15
0,Cap Malheureux,20,MU,78,1551735246,-19.98,57.61,80.6,1.12
0,Ternuvate,75,UA,93,1551733380,47.83,36.13,37.4,11.18
0,Bethel,90,US,93,1551732960,60.79,-161.76,37.4,16.11
0,Veraval,90,FR,80,1551735249,49.65,0.71,44.6,11.41
0,Sola,75,NO,93,1551735118,58.89,5.65,42.8,5.82
0,Marfino,90,RU,100,1551734001,56.07,37.56,34.0,8.95
0,Atar,0,MR,18,1551735112,20.52,-13.05,66.77,7.18
0,Salalah,0,OM,64,1551732600,17.01,54.1,75.2,3.36
0,Hirara,32,JP,100,1551735264,24.8,125.28,67.27,13.0
0,Chastyye,8,RU,70,1551735265,57.29,54.97,-2.58,3.49
0,Kavaratti,0,IN,100,1551735265,10.57,72.64,81.4,10.31
0,Brigantine,1,US,55,1551735249,39.41,-74.36,41.0,16.11
0,Campo Verde,20,PE,42,1551735266,-8.47,-74.81,94.13,4.72
0,Saint-Philippe,1,CA,45,1551735239,45.36,-73.48,26.01,21.92
0,Vila Franca do Campo,75,PT,93,1551733200,37.72,-25.43,62.6,26.4
0,Chuy,88,UY,61,1551735291,-33.69,-53.46,84.91,10.98
0,Beyneu,56,KZ,70,1551735295,45.32,55.19,25.28,4.61
0,Male,64,UA,90,1551735295,50.74,33.7,38.38,11.88
0,Port Blair,36,IN,100,1551735183,11.67,92.75,80.86,7.18
0,Les Cayes,0,HT,91,1551735295,18.19,-73.75,80.68,11.99
0,Sur,0,OM,100,1551735305,22.57,59.53,68.03,9.64
0,Kapaa,75,US,56,1551734900,22.08,-159.32,73.4,19.46
0,Sloboda,56,RU,81,1551735308,57.03,59.56,12.32,7.63
0,Chiredzi,0,ZW,65,1551735318,-21.05,31.67,80.14,8.75
0,Subiaco,24,AU,64,1551735311,-31.95,115.83,69.8,18.34
0,Pierre,1,US,66,1551735086,44.37,-100.35,12.99,26.4
0,Menongue,100,AO,34,1551735343,-14.66,17.68,78.79,4.61
0,Dzerzhinskoye,0,RU,89,1551735347,56.84,95.22,16.55,5.39
0,Aklavik,5,CA,68,1551733200,68.22,-135.01,24.8,5.82
0,Hilo,90,US,64,1551734774,19.71,-155.08,72.0,11.41
0,Opuwo,8,NA,41,1551735348,-18.06,13.84,69.07,4.61
0,Kruisfontein,8,ZA,83,1551735351,-34.0,24.73,63.49,10.76
0,Puerto Escondido,40,MX,70,1551732000,15.86,-97.07,84.2,9.17
0,Hualmay,12,PE,62,1551735351,-11.1,-77.61,78.83,4.83
0,Takapau,0,NZ,63,1551735352,-40.02,176.35,62.05,10.54
0,Hermanus,88,ZA,87,1551735139,-34.42,19.24,63.0,1.01
0,Cartagena,0,ES,82,1551735146,37.63,-1.0,63.0,8.05
0,Termez,0,AF,81,1551735204,37.23,67.28,48.2,6.93
0,Mackay,5,CA,34,1551733200,53.65,-115.58,23.0,14.99
0,Longyearbyen,75,NO,77,1551732600,78.22,15.63,-2.21,4.7
0,Mao,20,DO,38,1551735348,19.55,-71.08,89.01,11.41
0,Necochea,68,AR,47,1551735116,-38.55,-58.74,77.0,3.0
0,Saint Anthony,1,US,58,1551735340,43.97,-111.68,30.0,4.7
0,Luderitz,0,NA,70,1551734972,-26.65,15.16,66.55,23.06
0,Sao Sepe,40,BR,44,1551729600,-30.16,-53.57,95.0,8.05
0,Warri,20,NG,86,1551735270,5.52,5.75,78.07,7.29
0,Leningradskiy,56,RU,98,1551735411,69.38,178.42,7.42,3.27
0,Norman Wells,90,CA,85,1551733200,65.28,-126.83,21.2,3.36
0,Kavieng,88,PG,100,1551735411,-2.57,150.8,82.88,5.39
0,Carauari,32,BR,64,1551735411,-4.88,-66.9,89.59,2.93
0,Soe,90,EE,94,1551735076,57.91,26.05,34.0,5.82
0,Sardulgarh,44,IN,92,1551735412,29.7,75.25,51.02,2.71
0,Sinnamary,92,GF,90,1551735412,5.38,-52.96,80.27,11.65
0,Geraldton,90,CA,54,1551733200,49.72,-86.95,5.0,10.29
0,Yumen,8,CN,70,1551734976,40.29,97.04,24.02,9.98
0,Anadyr,75,RU,86,1551735208,64.73,177.51,30.2,33.55
0,Arraial do Cabo,40,BR,78,1551733200,-22.97,-42.02,82.4,8.05
0,Macusani,92,PE,100,1551735423,-14.07,-70.43,57.23,2.59
0,Houma,0,CN,96,1551735423,35.63,111.36,33.16,2.15
0,Mangrol,0,IN,75,1551735426,25.33,76.51,55.21,5.84
0,Port Lincoln,80,AU,100,1551735168,-34.72,135.86,61.1,6.17
0,Padang,56,ID,100,1551735427,-0.92,100.36,82.43,10.98
0,Fortuna,0,ES,48,1551735394,38.18,-1.13,66.2,8.05
0,Gresham,1,US,32,1551735218,45.51,-122.44,45.0,21.92
0,Deputatskiy,12,RU,62,1551735431,69.3,139.9,-35.34,2.71
0,Yerbogachen,44,RU,81,1551735440,61.28,108.01,14.44,7.18
0,Codrington,75,AU,93,1551735174,-28.95,153.24,71.6,3.6
0,Mayskiy,12,RU,75,1551733200,43.63,44.06,32.0,4.47
0,Khatanga,88,RU,82,1551735449,71.98,102.47,3.05,12.66
0,Bull Savanna,12,JM,56,1551735450,17.89,-77.59,81.22,8.75
0,Tabou,0,CI,91,1551735453,4.42,-7.36,85.4,9.42
0,Simao,48,CN,54,1551735454,22.76,100.79,59.62,4.05
0,Grindavik,40,IS,58,1551734656,63.84,-22.43,28.4,12.75
0,Lebu,20,ET,67,1551729600,8.96,38.73,62.6,4.7
0,Gorebridge,0,GB,90,1551735439,55.84,-3.05,39.99,9.17
0,Shumskiy,8,RU,76,1551735471,54.83,99.13,14.44,2.15
0,Honiara,12,SB,92,1551735472,-9.43,159.96,78.25,1.81
0,Coihaique,75,CL,54,1551733200,-45.58,-72.07,53.6,5.82
0,Bontang,0,ID,93,1551735472,0.12,117.47,81.4,11.21
0,Mahebourg,20,MU,78,1551734946,-20.41,57.7,80.6,1.12
0,Cayenne,100,GF,69,1551733200,4.94,-52.33,82.4,11.41
0,Damghan,68,IR,65,1551735473,36.17,54.34,39.82,4.61
0,Vardo,20,US,40,1551735465,39.62,-77.74,37.99,16.11
0,Itarema,88,BR,96,1551735474,-2.92,-39.92,76.81,3.71
0,Aland,0,IN,42,1551735475,17.57,76.57,72.85,9.64
0,Los Llanos de Aridane,20,ES,67,1551735002,28.66,-17.92,62.6,9.17
0,Nurota,0,UZ,93,1551733200,40.56,65.69,35.6,6.93
0,Fukue,20,JP,66,1551735282,35.03,136.69,48.2,24.16
0,Neftcala,8,AZ,97,1551735476,39.37,49.25,43.28,4.72
0,Tingi,48,TZ,100,1551735485,-11.3,35.03,79.55,4.72
0,Najran,5,SA,24,1551733200,17.54,44.22,68.0,2.71
0,San Francisco,90,US,76,1551734946,37.78,-122.42,57.2,8.05
0,Thompson,75,CA,59,1551733200,55.74,-97.86,3.2,14.99
0,Ucluelet,75,CA,39,1551735148,48.94,-125.55,45.0,8.05
0,Georgetown,75,GY,83,1551729600,6.8,-58.16,80.6,11.41
0,Faanui,68,PF,100,1551735488,-16.48,-151.75,82.66,6.96
0,Katobu,56,ID,100,1551735488,-4.94,122.53,79.82,3.94
0,Cabo San Lucas,5,MX,44,1551735116,22.89,-109.91,84.99,6.93
0,Caucaia,40,BR,83,1551734894,-3.73,-38.66,81.0,6.93
0,Avera,75,US,57,1551735438,33.19,-82.53,54.0,6.93
0,Te Anau,48,NZ,86,1551735497,-45.41,167.72,62.27,11.77
0,Vao,80,EE,95,1551735497,59.1,26.19,27.58,7.29
0,Tabas,48,IR,42,1551735497,33.6,56.92,41.57,3.83
0,Hovd,0,NO,67,1551735317,63.83,10.7,25.0,11.41
0,Vanimo,64,PG,100,1551735507,-2.67,141.3,82.21,12.77
0,Rauma,92,FI,79,1551732600,61.13,21.5,24.8,4.7
0,Fairbanks,1,US,100,1551735298,64.84,-147.72,27.0,6.73
0,Caravelas,68,BR,100,1551735023,-17.73,-39.27,81.67,14.56
0,Varsag,8,RO,75,1551733200,46.52,25.35,37.0,7.0
0,Toktogul,92,KG,63,1551735223,41.87,72.95,34.0,1.01
0,Ponta do Sol,92,BR,84,1551735510,-20.63,-46.0,70.87,4.38
0,Pangkalanbuun,64,ID,96,1551735519,-2.68,111.62,73.57,4.16
0,Port Alfred,24,ZA,92,1551735323,-33.59,26.89,69.01,4.0
0,Port Hardy,20,CA,44,1551733200,50.7,-127.42,41.0,11.41
0,Dingle,56,PH,83,1551735520,11.0,122.67,75.73,13.22
0,Barrow,0,AR,52,1551735520,-38.31,-60.23,78.34,7.4
0,Nome,90,US,69,1551735510,30.04,-94.42,41.0,11.41
0,Nang Rong,0,TH,83,1551735198,14.64,102.79,80.01,7.63
0,Goundam,0,ML,32,1551735521,16.42,-3.66,66.46,6.4
0,Krasnyye Baki,8,RU,71,1551735521,57.13,45.16,8.45,5.95
0,Taunggyi,0,MM,79,1551735522,20.78,97.03,53.45,4.38
0,Wagga Wagga,92,AU,47,1551735147,-35.12,147.37,77.0,4.7
0,Esperance,20,TT,100,1551735307,10.24,-61.45,84.99,13.87
0,Saint Simons,1,US,48,1551735175,31.14,-81.39,66.2,11.41
0,Sobolevo,92,RU,95,1551735526,54.43,31.9,40.27,13.44
0,Lasa,20,CY,81,1551735144,34.92,32.53,50.0,6.93
0,Ardakan,0,IR,14,1551733200,32.31,54.02,53.6,13.87
0,Kloulklubed,75,PW,83,1551732600,7.04,134.26,78.8,6.93
0,Key West,40,US,84,1551735501,47.93,-96.78,12.0,18.34
0,Vostok,68,RU,79,1551735528,46.45,135.83,17.05,1.92
0,Ixtapa,40,MX,78,1551735308,20.71,-105.21,80.01,13.87
0,Ribeira Grande,75,PT,87,1551733200,38.52,-28.7,59.0,28.86
0,Acapulco,40,MX,74,1551732120,16.86,-99.88,82.4,13.87
0,Torbay,90,CA,85,1551735206,47.66,-52.73,24.8,9.17
0,Nuuk,75,GL,79,1551732600,64.17,-51.74,21.2,1.12
0,Nizhniy Tsasuchey,12,RU,76,1551735535,50.52,115.13,22.63,9.08
0,Kumta,0,IN,100,1551735535,14.42,74.4,72.08,6.4
0,Kununurra,0,AU,88,1551733200,-15.77,128.74,75.2,2.24
0,Homer,1,US,69,1551735434,59.64,-151.54,33.8,3.36
0,Bilma,0,NE,21,1551735536,18.69,12.92,59.03,8.41
0,Lukulu,44,ZM,37,1551735536,-14.38,23.24,81.35,7.96
0,High Level,5,CA,48,1551733200,58.52,-117.13,17.6,9.17
0,Capoterra,0,IT,66,1551732900,39.18,8.97,57.2,4.7
0,Mitsamiouli,20,KM,83,1551733200,-11.38,43.28,78.8,5.82
0,Hirado,0,JP,100,1551735207,33.32,129.49,42.8,8.05
0,Klyuchi,32,RU,89,1551735540,52.25,79.17,28.07,15.79
0,Banjar,8,ID,96,1551735541,-7.37,108.54,69.52,1.36
0,Port Hueneme,40,US,63,1551735523,34.15,-119.2,66.0,10.29
0,Bucak,40,TR,86,1551734400,37.46,30.59,50.0,6.93
0,Griffith,90,AU,73,1551735018,-34.29,146.06,75.2,8.05
0,Saskylakh,20,RU,38,1551735543,71.97,114.09,-25.62,4.94
0,Turukhansk,88,RU,87,1551735549,65.8,87.96,25.73,20.83
0,Arraias,32,BR,83,1551735549,-12.93,-46.94,79.69,4.61
0,Lompoc,1,US,55,1551735496,34.64,-120.46,64.0,12.75
0,Barbastro,0,ES,53,1551735125,42.04,0.13,57.99,6.93
0,Meulaboh,92,ID,100,1551735551,4.14,96.13,78.88,1.7
0,Eyl,92,SO,96,1551735553,7.98,49.82,77.62,12.55
0,Ha Tinh,12,VN,99,1551735554,18.33,105.9,74.92,16.35
0,Kuala Lipis,36,MY,95,1551735554,4.19,102.05,71.45,2.37
0,Khorixas,0,NA,59,1551735554,-20.37,14.96,69.02,3.94
0,Mzimba,36,MW,90,1551735555,-11.9,33.6,64.3,2.26
0,Arlit,0,NE,29,1551735555,18.74,7.39,64.03,3.83
0,Naze,40,NG,88,1551733200,5.43,7.07,80.6,2.24
0,Zorritos,75,PE,33,1551733200,-3.68,-80.68,89.6,11.41
0,Port Macquarie,64,AU,83,1551735244,-31.43,152.91,71.01,3.36
0,Falam,80,MM,89,1551735559,22.91,93.68,51.02,1.92
0,Bourail,44,NC,83,1551735560,-21.57,165.5,78.2,4.16
0,Coahuayana,0,MX,28,1551735560,18.62,-100.35,88.24,3.04
0,Tocopilla,0,CL,67,1551735560,-22.09,-70.2,72.67,7.4
0,Luwuk,20,ID,99,1551735414,-0.95,122.79,76.63,2.93
0,Yuzhnouralsk,8,RU,77,1551735582,54.44,61.27,13.63,13.0
0,Vangaindrano,56,MG,97,1551735585,-23.35,47.6,71.68,2.37
0,Waddan,0,LY,83,1551735586,29.16,16.14,41.75,4.61
0,Kaitangata,0,NZ,59,1551735561,-46.28,169.85,70.0,4.0
0,Deyang,88,CN,68,1551735586,31.12,104.39,54.0,4.5
0,Komsomolskiy,44,RU,70,1551735590,67.55,63.78,-6.58,7.4
0,Ati,0,TD,24,1551735590,13.21,18.34,84.95,11.32
0,Ballina,75,IE,93,1551735494,54.11,-9.15,45.0,11.41
0,Isangel,20,VU,83,1551733200,-19.55,169.27,82.4,6.29
0,Pochutla,40,MX,70,1551735031,15.74,-96.47,88.0,9.17
0,Souillac,0,FR,81,1551735559,45.6,-0.6,48.99,6.93
0,Sitka,12,US,66,1551735094,37.17,-99.65,19.0,10.0
0,Kathu,20,ZA,35,1551735044,-27.7,23.05,75.0,7.18
0,Carutapera,80,BR,88,1551735451,-1.2,-46.02,79.15,7.63
0,Bolobo,44,CD,94,1551735601,-2.17,16.23,76.36,1.92
0,Galesong,20,ID,94,1551733200,-5.32,119.37,77.0,3.15
0,Belogorsk,20,UA,100,1551735614,45.06,34.59,29.29,6.73
0,Evans,1,US,61,1551735608,40.38,-104.69,23.0,6.93
0,Provideniya,88,RU,96,1551735614,64.42,-173.23,30.37,10.98
0,Bristol,90,GB,86,1551735611,51.45,-2.6,42.01,10.29
0,Hokitika,92,NZ,100,1551735618,-42.72,170.96,58.81,2.37
0,Kirakira,44,SB,100,1551735619,-10.46,161.92,80.86,5.17
0,Cesme,0,TR,75,1551732600,38.32,26.31,41.0,5.5
0,Huarmey,32,PE,57,1551735619,-10.07,-78.15,77.93,4.16
0,Kulhudhuffushi,68,MV,98,1551735620,6.62,73.07,83.78,6.62
0,Tautira,20,PF,62,1551735204,-17.73,-149.15,87.8,8.05
0,Magnolia,90,US,50,1551735192,33.27,-93.24,34.0,8.05
0,Berdigestyakh,76,RU,78,1551735623,62.1,126.7,6.34,6.4
0,Jackville,20,CI,83,1551733200,5.21,-4.42,84.2,9.17
0,Wageningen,90,NL,75,1551735622,51.98,5.66,46.99,16.11
0,Alofi,75,NU,78,1551733200,-19.06,-169.92,80.6,17.22
0,Guararapes,56,BR,82,1551735626,-21.25,-50.65,78.61,9.08
0,Slave Lake,1,CA,56,1551733200,55.28,-114.77,15.8,13.87
0,Garden City,1,US,47,1551735343,40.73,-73.63,39.99,13.87
0,Riyadh,0,SA,26,1551733200,24.63,46.72,59.0,4.7
0,Muisne,20,EC,84,1551733200,0.61,-80.02,86.0,10.29
0,Ambovombe,0,MG,96,1551735679,-25.18,46.09,78.02,6.29
0,Saint-Augustin,0,FR,81,1551734829,44.83,-0.61,51.8,8.05
0,Mporokoso,36,ZM,83,1551735680,-9.37,30.12,64.3,4.27
0,Piraju,80,BR,82,1551735644,-23.19,-49.38,76.0,7.07
0,Kodiak,1,US,17,1551735646,39.95,-94.76,17.01,14.99
0,Kahului,40,US,60,1551735232,20.89,-156.47,75.99,19.46
0,Puri,40,ID,100,1551733200,-7.54,112.45,78.8,2.24
0,Okhotsk,68,RU,100,1551735685,59.36,143.24,-0.24,5.17
0,Deli Tua,0,ID,89,1551735685,3.5,98.69,72.31,3.49
0,Alta Floresta,40,BR,70,1551733200,-9.87,-56.08,84.2,13.87
0,Petropavlovsk-Kamchatskiy,0,RU,64,1551733200,53.05,158.65,1.4,4.47
0,Katsuura,20,JP,86,1551734400,33.93,134.5,46.4,9.17
0,Mount Gambier,90,AU,87,1551733200,-37.83,140.78,59.0,5.82
0,Chapais,40,CA,42,1551733200,49.78,-74.86,8.6,6.93
0,Hasaki,75,JP,86,1551735277,35.73,140.83,41.0,5.82
0,Jumla,20,NP,91,1551735708,29.28,82.18,15.43,1.48
0,Ulaangom,8,MN,46,1551735709,49.98,92.07,-1.27,1.48
0,Harper,90,US,55,1551735676,30.3,-99.24,37.99,8.05
0,Pahrump,40,US,38,1551734796,36.21,-115.98,66.99,6.93
0,Ahipara,8,NZ,99,1551732771,-35.17,173.16,68.0,3.0
0,Hoquiam,1,US,33,1551735670,46.98,-123.89,46.0,16.11
0,Qandala,68,SO,100,1551735723,11.47,49.87,70.15,1.25
0,Saint-Leu,0,RE,65,1551735157,-21.15,55.28,78.8,5.82
0,Zmeinogorsk,92,RU,93,1551735746,51.15,82.2,33.88,14.12
0,Xinglongshan,20,CN,85,1551733200,43.96,125.47,24.8,8.95
0,Yangjiang,88,CN,71,1551735481,21.85,111.96,73.99,16.02
0,Kazlu Ruda,0,LT,75,1551732600,54.77,23.5,46.4,9.17
0,Tuatapere,12,NZ,76,1551735606,-46.13,167.69,70.0,1.01
0,Aberdeen,75,US,71,1551735439,45.47,-98.49,12.99,17.22
0,Batticaloa,32,LK,100,1551735757,7.71,81.69,77.57,4.72
0,Marienburg,75,DE,65,1551735738,52.12,9.98,46.0,19.46
0,Margate,0,AU,87,1551735735,-43.03,147.26,55.99,8.05
0,Kidal,0,ML,22,1551735771,18.44,1.41,60.79,6.51
0,Richards Bay,80,ZA,98,1551735772,-28.77,32.06,73.12,10.09
0,Aloleng,0,PH,100,1551735772,16.13,119.78,73.57,10.98
0,Kalemie,36,CD,100,1551735781,-5.95,29.2,76.0,2.26
0,Kesinga,0,IN,93,1551735803,20.19,83.22,69.16,2.59
0,La Paz,5,MX,36,1551735010,24.15,-110.32,87.01,14.99
0,Bignona,0,SN,61,1551733200,12.8,-16.23,77.0,6.93
0,Moosomin,64,CA,82,1551735808,50.14,-101.67,12.01,19.6
0,Oulu,44,FI,84,1551734400,65.01,25.47,-2.21,4.7
0,Bonthe,0,SL,70,1551735812,7.53,-12.5,80.41,4.94
0,Rio Gallegos,20,AR,19,1551733200,-51.62,-69.22,59.0,27.51
0,Albanel,75,CA,48,1551735521,48.88,-72.44,19.99,8.05
0,Hambantota,20,LK,100,1551733800,6.12,81.12,77.0,3.6
0,Havre-Saint-Pierre,90,CA,92,1551733980,50.23,-63.6,21.2,11.41
0,Namangan,92,UZ,70,1551733200,41.0,71.67,44.6,2.24
0,Rio de Janeiro,75,BR,83,1551733200,-22.91,-43.21,86.0,6.93
0,Tingo Maria,90,PE,83,1551733200,-9.29,-76.01,78.8,5.82
0,Filadelfia,12,PY,35,1551735841,-22.35,-60.04,100.3,17.69
0,Yar-Sale,80,RU,83,1551735841,66.83,70.83,4.85,14.67
0,Poya,12,NC,94,1551735842,-21.35,165.16,77.53,7.85
0,Saint George,0,GR,65,1551735798,39.45,22.34,50.0,5.82
0,Nouadhibou,0,MR,72,1551733200,20.93,-17.03,66.2,16.11
0,Corrente,56,BR,73,1551735861,-17.45,-44.68,77.53,2.71
0,Faya,0,SA,33,1551733200,18.39,42.45,59.0,4.7
0,Quchan,32,IR,82,1551735865,37.11,58.51,23.26,1.7
0,Port Hawkesbury,90,CA,92,1551735652,45.62,-61.36,32.0,29.97
0,Santa Rosa,0,AR,31,1551735867,-36.62,-64.29,80.63,6.4
0,Santa Lucia,40,IT,58,1551735589,39.93,9.66,63.0,14.99
0,Booue,32,GA,93,1551735868,-0.09,11.94,75.5,2.26
0,Pangnirtung,90,CA,59,1551733200,66.15,-65.72,1.4,4.05
0,Meadow Lake,75,CA,44,1551733200,54.13,-108.44,21.2,16.11
0,Cerro Largo,8,BR,74,1551735869,-28.15,-54.74,87.83,3.04
0,Puquio,88,PE,100,1551735869,-14.69,-74.12,49.09,3.71
0,Tsaratanana,76,MG,97,1551735871,-16.8,47.65,69.16,2.37
0,Bowen,90,AU,83,1551735837,-20.01,148.25,75.99,10.29
0,Paramonga,24,PE,98,1551735871,-10.68,-77.82,74.83,6.96
0,Kijang,8,KR,86,1551733200,35.24,129.21,39.2,3.36
0,Limbang,75,BN,100,1551733200,4.75,115.01,78.8,1.12
0,Parana,75,BR,59,1551733200,-7.52,-72.89,91.4,4.7
0,Dunmore East,0,IE,80,1551735828,52.15,-6.99,42.01,3.0
0,Constancia,20,CU,69,1551732600,22.24,-80.58,82.4,14.99
0,Tucurui,80,BR,86,1551735874,-3.77,-49.67,78.83,2.26
0,Auce,20,LV,96,1551735877,56.47,22.9,44.59,17.69
0,Luganville,80,VU,94,1551735878,-15.51,167.18,83.47,9.42
0,Mandan,40,US,92,1551735525,46.83,-100.89,12.2,29.97
0,Coswig,0,DE,75,1551735834,51.13,13.58,43.0,18.34
0,Blois,68,FR,87,1551735524,47.59,1.33,43.0,8.05
0,Villarrica,0,CL,42,1551735060,-39.28,-72.23,66.2,14.99
0,Freeport,20,BS,62,1551733200,26.54,-78.7,86.0,10.29
0,Ibotirama,36,BR,57,1551735892,-12.18,-43.22,84.91,4.05
0,Tallahassee,40,US,61,1551735652,30.44,-84.28,57.0,6.93
0,Bose,0,IT,93,1551735845,45.46,8.01,53.01,6.93
0,Shirokiy,56,RU,90,1551735845,53.87,39.17,34.0,3.0
0,Hamilton,75,BM,88,1551735518,32.3,-64.78,71.6,18.34
0,Gloucester,40,GB,86,1551735615,51.87,-2.25,41.0,12.75
0,Chhatak,92,BD,100,1551735895,25.03,91.67,57.77,2.15
0,Gravdal,75,NO,87,1551735894,59.79,5.78,42.8,6.93
0,Anloga,20,GH,83,1551733200,5.79,0.9,84.2,11.41
0,Karratha,20,AU,53,1551735646,-20.74,116.85,81.49,8.63
0,Teonthar,0,IN,78,1551735896,24.98,81.65,62.68,2.82
0,Pauini,0,BR,70,1551735917,-7.71,-67.0,86.71,1.92
0,Shizunai,0,JP,100,1551735917,42.33,142.37,15.25,5.06
0,Dakoro,20,NE,62,1551735921,14.51,6.76,72.4,2.93
0,Charyshskoye,36,RU,82,1551735921,51.4,83.56,37.48,12.55
0,Gushikawa,75,JP,76,1551733200,26.35,127.87,62.6,8.05
0,Thap Than,0,TH,77,1551735367,15.46,99.89,80.01,5.39
0,Lowestoft,20,GB,70,1551735936,52.48,1.75,45.0,17.22
0,Codajas,12,BR,82,1551735946,-3.84,-62.06,84.82,4.05
0,Sao Filipe,0,CV,89,1551735947,14.9,-24.5,72.58,18.03
0,Tual,56,ID,100,1551735950,-5.67,132.75,81.94,9.42
0,Goderich,56,CA,47,1551735787,43.74,-81.71,17.01,4.0
0,Inhambane,88,MZ,89,1551735959,-23.87,35.38,81.76,10.87
0,Baruun-Urt,44,MN,78,1551735960,46.68,113.28,17.5,11.21
0,Comodoro Rivadavia,40,AR,24,1551733200,-45.87,-67.48,68.0,28.86
0,Port-Cartier,90,CA,92,1551735804,50.03,-66.88,27.0,10.29
0,Dunedin,0,NZ,78,1551735961,-45.87,170.5,69.7,7.4
0,Bachaquero,64,VE,68,1551735961,9.96,-71.12,87.97,2.48
0,Severomuysk,0,RU,52,1551735965,56.17,113.57,-13.33,1.92
0,Narsaq,75,GL,58,1551732600,60.91,-46.05,28.4,1.12
0,Diffa,0,NE,21,1551735965,13.32,12.61,77.75,8.97
0,Maceio,75,BR,83,1551733200,-9.67,-35.74,78.8,3.36
0,Ferme-Neuve,36,CA,53,1551735779,46.7,-75.45,18.58,5.06
0,Acajutla,12,SV,75,1551735654,13.59,-89.83,82.0,4.0
0,Yigou,92,CN,73,1551735966,35.81,114.32,49.45,9.86
0,San Patricio,0,PY,43,1551735967,-26.98,-56.83,91.75,4.27
0,Honningsvag,90,NO,78,1551732600,70.98,25.97,17.6,20.8
0,Hatillo,90,PR,87,1551735955,18.49,-66.83,80.01,9.17
0,Laguna,40,MX,26,1551732060,27.52,-110.01,84.2,9.17
0,Spirit River,5,CA,51,1551735726,55.78,-118.84,14.0,5.82
0,Bushehr,0,IR,62,1551733200,28.97,50.84,59.0,8.41
0,Jinchang,20,CN,47,1551735973,38.52,102.19,5.12,2.59
0,Ulladulla,0,AU,94,1551735940,-35.36,150.48,73.0,8.05
0,Jhelum,0,PK,95,1551735679,32.94,73.72,45.4,2.37
0,Liwonde,48,MW,96,1551735975,-15.05,35.2,70.96,5.28
0,Inza,48,RU,89,1551735975,53.86,46.36,22.0,4.38
0,Ust-Ordynskiy,0,RU,79,1551735000,52.8,104.75,19.4,4.47
0,Tigzirt,0,DZ,75,1551735976,36.57,4.2,45.53,0.81
0,Hukuntsi,88,BW,17,1551735980,-23.98,21.76,84.55,9.98
0,Adrar,0,DZ,15,1551733200,27.87,-0.29,68.0,10.29
0,Belmonte,88,PT,81,1551735973,40.36,-7.35,48.0,2.93
0,Antalaha,64,MG,100,1551735980,-14.9,50.28,76.13,2.37
0,Mantua,0,IT,100,1551735964,45.16,10.79,50.0,2.24
0,Zhezkazgan,0,KZ,80,1551735984,47.8,67.71,9.53,9.64
0,Clyde River,75,CA,83,1551733200,70.47,-68.59,-4.01,6.93
0,Solnechnyy,48,RU,61,1551735992,50.72,136.64,4.13,3.38
0,Prince Rupert,1,CA,32,1551733200,54.32,-130.32,41.0,6.93
0,Banda Aceh,8,ID,98,1551735993,5.56,95.32,72.98,2.15
0,Araouane,0,ML,26,1551735993,18.9,-3.53,61.33,4.05
0,Flin Flon,75,CA,51,1551733200,54.77,-101.88,14.0,17.22
0,Koran,0,BA,45,1551733200,43.81,18.57,48.2,3.36
0,Shitanjing,0,CN,68,1551735998,39.23,106.34,13.36,1.92
0,Marsa Matruh,92,EG,98,1551735998,31.35,27.25,51.38,3.83
0,Bolkhov,92,RU,89,1551736002,53.44,36.0,37.21,11.77
0,Dessau,75,DE,75,1551735969,51.83,12.24,44.01,19.46
0,Chernenko,92,UA,91,1551736023,47.23,37.74,38.29,13.0
0,Do Gonbadan,0,IR,75,1551733200,30.36,50.8,42.8,1.7
0,Lagoa,75,PT,93,1551736027,37.14,-8.45,59.0,10.29
0,Egvekinot,80,RU,92,1551736037,66.32,-179.17,27.08,8.52
0,Manawar,0,IN,50,1551736040,22.23,75.09,65.02,9.08
0,Great Bend,1,US,61,1551736025,38.36,-98.78,19.4,10.29
0,Ormskirk,40,GB,86,1551736028,53.57,-2.89,42.01,16.11
0,Worthington,20,US,77,1551735912,43.62,-95.6,7.0,27.51
0,The Pas,90,CA,61,1551733200,53.82,-101.24,14.0,12.75
0,Madang,88,PG,100,1551736042,-5.21,145.81,75.01,4.38
0,Bata,40,GQ,100,1551733200,1.87,9.77,77.0,3.6
0,Killorglin,76,IE,98,1551735837,52.1,-9.78,41.48,16.69
0,Caxito,40,BR,78,1551733200,-22.65,-42.51,82.4,4.7
0,Beitbridge,8,ZA,77,1551736043,-22.21,29.99,78.34,7.74
0,San Andres,0,PH,100,1551736053,13.32,122.68,78.38,13.22
0,Sao Joao da Barra,20,BR,74,1551733200,-21.64,-41.05,82.4,13.87
0,Requena,0,ES,40,1551735999,39.49,-1.1,68.0,13.87
0,Kalaleh,90,IR,93,1551733200,37.38,55.49,48.2,4.7
0,Alyangula,44,AU,100,1551733200,-13.85,136.42,75.2,6.73
0,La Ronge,5,CA,48,1551733200,55.1,-105.3,19.4,11.41
0,Ifakara,48,TZ,91,1551736091,-8.13,36.68,74.02,2.71
0,Flinders,0,AU,94,1551736039,-34.58,150.85,73.99,8.05
0,Abashiri,8,JP,80,1551735666,44.01,144.25,23.0,5.01
0,Colares,40,PT,76,1551736053,38.8,-9.45,57.99,4.7
0,Talnakh,88,RU,87,1551735830,69.49,88.39,24.47,14.45
0,Axim,24,GH,95,1551736101,4.87,-2.24,83.6,10.87
0,Carndonagh,20,IE,75,1551732600,55.25,-7.27,41.0,11.41
0,Bukene,32,TZ,90,1551736103,-4.23,32.89,64.07,6.17
0,Hope,1,CA,27,1551736034,49.38,-121.43,42.01,9.17
0,Herat,0,AF,79,1551736104,34.35,62.22,33.2,5.39
0,Nemuro,0,JP,100,1551736104,43.32,145.57,27.85,14.79
0,Ouadda,24,CF,66,1551736105,8.07,22.4,72.62,3.38
0,Sakata,0,JP,94,1551736105,38.92,139.93,37.03,9.64
0,Sept-Iles,90,CA,92,1551735804,50.2,-66.38,27.0,10.29
0,Namibe,20,AO,100,1551736105,-15.19,12.15,77.89,6.85
0,Hwange,48,ZW,44,1551736110,-18.35,26.5,81.49,10.65
0,Aspindza,0,GE,56,1551736110,41.57,43.25,1.21,2.15
0,Staryy Nadym,88,RU,85,1551736113,65.61,72.68,13.36,14.12
0,Le Port,76,FR,70,1551736000,42.87,1.37,48.0,1.48
0,Rorvik,0,NO,73,1551732600,64.86,11.24,19.4,4.7
0,Krasnokholmskiy,68,RU,76,1551736118,55.99,55.05,12.68,4.83
0,Ballarat,20,AU,74,1551735971,-37.56,143.86,70.0,3.83
0,Kieta,68,PG,97,1551736143,-6.22,155.63,80.23,1.92
0,Pevek,32,RU,86,1551736143,69.7,170.27,-0.28,5.61
0,Kishi,12,NG,37,1551736144,9.08,3.85,75.05,4.38
0,Xining,24,CN,86,1551736144,36.62,101.77,13.99,2.82
0,Nkhotakota,68,MW,95,1551736165,-12.93,34.3,75.05,3.15
0,Wilmington,1,US,55,1551736165,39.75,-75.55,37.99,11.41
0,Marrakesh,0,MA,59,1551735000,31.63,-7.99,62.6,5.82
0,San Felipe,0,CL,30,1551736143,-32.75,-70.73,78.01,4.0
0,Zhuhai,0,CN,53,1551733200,40.71,112.04,21.2,2.24
0,Brownwood,90,US,50,1551735959,31.71,-98.99,28.4,12.75
0,Klaksvik,92,FO,99,1551734400,62.23,-6.59,39.2,24.16
0,Iwanai,0,JP,100,1551736178,42.97,140.51,27.85,5.17
0,Lorengau,12,PG,100,1551736178,-2.02,147.27,78.83,5.61
0,Berlevag,40,NO,62,1551732600,70.86,29.09,19.4,29.97
0,Boa Vista,40,BR,32,1551733200,2.82,-60.67,95.0,10.29
0,Pyu,0,MM,85,1551736189,18.48,96.43,66.28,3.94
0,Kainan,20,JP,70,1551733200,34.15,135.21,46.4,17.22
0,Leh,36,IN,67,1551736192,34.16,77.58,-8.92,1.81
0,Alabaster,75,US,52,1551735979,33.24,-86.82,43.0,5.82
0,Pervomayskoye,48,RU,90,1551736194,57.07,86.23,26.86,11.77
0,Zeya,0,RU,65,1551736197,53.74,127.27,1.84,5.5
0,Ust-Nera,12,RU,0,1551735853,64.57,143.24,-40.65,1.92
0,Tianpeng,92,CN,100,1551736240,28.88,112.34,50.71,6.85
0,Abancay,80,PE,72,1551736240,-13.64,-72.88,54.08,2.37
0,Mount Isa,0,AU,77,1551733200,-20.73,139.49,68.0,2.24
0,Coquimbo,0,CL,68,1551733200,-29.95,-71.34,68.0,13.87
0,Potiskum,0,NG,23,1551736241,11.71,11.08,80.9,10.76
0,Srikakulam,0,IN,97,1551736242,18.29,83.89,80.27,20.15
0,Hervey Bay,75,AU,94,1551735909,-25.3,152.85,77.0,9.17
0,San Policarpo,88,PH,94,1551736242,12.18,125.51,77.62,13.0
0,Tateyama,75,JP,93,1551736223,36.66,137.31,42.01,2.24
0,Sarh,20,TD,41,1551733200,9.14,18.39,91.4,6.96
0,Montanhas,76,BR,83,1551736268,-6.49,-35.29,78.38,7.07
0,Boda,0,BD,93,1551736268,26.2,88.56,58.09,6.62
0,Hailar,56,CN,78,1551736269,49.2,119.7,14.26,8.86
0,Abbeville,0,FR,81,1551736203,50.11,1.83,46.4,23.04
0,Tosu,0,JP,93,1551736264,33.38,130.51,43.0,3.36
0,Monastyrshchina,92,RU,95,1551736270,54.35,31.84,40.27,13.44
0,Kattivakkam,20,IN,88,1551733200,13.22,80.32,80.6,5.82
0,Abnub,0,EG,46,1551733200,27.27,31.15,53.6,10.29
0,Buchanan,36,LR,83,1551733200,5.88,-10.05,80.6,5.73
0,Mayumba,68,GA,92,1551736274,-3.44,10.65,82.07,7.74
0,Zharkent,20,KZ,59,1551736275,44.17,80.0,10.7,2.15
0,Mamallapuram,20,IN,88,1551733200,12.63,80.17,80.6,5.82
0,Marand,75,IR,80,1551733200,38.43,45.77,39.2,0.69
0,Nanakuli,75,US,56,1551736151,21.39,-158.15,75.2,11.41
0,Yulara,0,AU,28,1551733200,-25.24,130.99,73.4,6.93
0,Duldurga,32,RU,83,1551736276,50.67,113.59,16.51,5.39
0,College,1,US,100,1551736120,64.86,-147.8,28.0,6.73
0,Amberley,0,NZ,45,1551736086,-43.15,172.73,73.99,1.12
0,Pakxe,0,LA,75,1551736276,15.12,105.78,73.3,1.92
0,Merauke,20,ID,100,1551736277,-8.49,140.4,76.27,5.5
0,Verdun,75,FR,93,1551736255,49.16,5.39,45.0,3.36
0,Saint-Francois,75,FR,81,1551735948,46.42,3.91,46.0,8.05
0,Rusape,20,ZW,90,1551736278,-18.53,32.12,63.53,4.5
0,Litovko,0,RU,57,1551736279,49.24,135.18,-1.63,2.37
0,Yuma,75,US,27,1551736264,32.73,-114.62,75.99,5.82
0,Ventspils,90,LV,93,1551734400,57.39,21.56,41.0,25.28
0,Lensk,0,RU,76,1551736280,60.71,114.91,8.9,6.17
0,Baykit,68,RU,85,1551736303,61.68,96.39,21.55,5.95
0,Pio IX,88,BR,99,1551736303,-6.83,-40.61,69.97,4.5
0,Maraa,68,BR,76,1551736304,-1.83,-65.37,84.23,6.4
0,Poum,0,MK,76,1551736304,41.28,20.71,21.37,1.81
0,Nzerekore,44,GN,51,1551736305,7.76,-8.82,81.04,3.15
0,Teguldet,20,RU,90,1551736315,57.31,88.17,25.82,6.62
0,Mogadishu,20,SO,100,1551736223,2.04,45.34,80.27,20.15
0,Tawang,76,BT,80,1551736319,27.59,91.87,30.01,1.03
0,Hobyo,12,SO,89,1551736319,5.35,48.53,76.99,11.99
0,Katima Mulilo,32,NA,34,1551736319,-17.5,24.28,82.84,7.74
0,Jiuquan,20,CN,77,1551735739,39.73,98.49,10.25,3.94
0,Quechultenango,0,MX,31,1551736320,17.41,-99.24,83.56,2.37
0,Darya Khan,0,PK,76,1551736321,31.78,71.1,40.58,2.59
0,Ugoofaaru,92,MV,97,1551736322,5.67,73.0,84.01,8.19
0,Henties Bay,0,NA,86,1551733324,-22.12,14.28,68.0,3.0
0,Tucumcari,90,US,73,1551736217,35.17,-103.73,19.4,3.36
0,Teguise,75,ES,68,1551735000,29.06,-13.56,64.4,13.87
0,Tazovskiy,68,RU,85,1551736332,67.47,78.7,17.45,21.16
